[
	{
		"id": 1,
		"title": "Svaneholms slott",
		"description": "Slott i Skurup", 
		"mainText": "Här är huvudtexten för Svaneholms slott",
		"located": "Skurup",
		"latitude": 55.50089,
		"longitude": 13.47821,
	},
	{
		"id": 2,
		"title": "Trollenäs slott",
		"description": "Slott i Trollenäs",
		"mainText": "Här är huvudtexten för Trollenäs Slott",
		"located": "Eslöv",
		"latitude": 55.86608,
		"longitude": 13.24453,
	},
	{
		"id": 3,
		"title": "Gyllebo slott",
		"description": "Slott i Simrishamn",
		"mainText": "Detta är huvudtexten",
		"located": "Simrishamn",
		"latitude": 55.59926 ,
		"longitude": 14.19630,
	},
	{
		"id": 4,
		"title": "Glimmingehus",
		"description": "Borg i Simrishamn",
		"mainText": "Borg i Simrishamn",
		"located": "Simrishamn",
		"latitude":55.50109,
		"longitude":14.13091,
	},
	{
		"id":5,
		"title": "Hjularöd slott",
		"description":"Slott i Eslöv",
		"mainText": "Detta är huvudtexten",
		"located": "Eslöv",
		"latitude":55.73510,
		"longitude":13.55912,
	},
]
